[
  {
    "name": "Bostancı İDO - 2",
    "lat": "40.952266",
    "lon": "29.090789"
  },
  {
    "name": "Caddebostan Migros",
    "lat": "40.96330",
    "lon": "29.06631"
  },
  {
    "name": "Bostancı İDO - 1",
    "lat": "40.95287",
    "lon": "29.09019"
  },
  {
    "name": "Maltepe Kültür Merkezi-1",
    "lat": "40.94661",
    "lon": "29.10169"
  },
  {
    "name": "Süreyya Paşa Plajı",
    "lat": "40.9249313794",
    "lon": " 29.123945947"
  },
  {
    "name": "Kadıköy Balon - 1",
    "lat": "40.990497",
    "lon": "29.018865"
  },
  {
    "name": "Piri Reis Caddesi",
    "lat": "40.912090533",
    "lon": " 29.1339457835"
  },
  {
    "name": "Dragos Sosyal Tesisleri",
    "lat": "40.90171518",
    "lon": " 29.1465356"
  },
  {
    "name": "Kartal Sahil - 1",
    "lat": "40.8900638046",
    "lon": " 29.1750217889"
  },
  {
    "name": "Kartal İDO - 1",
    "lat": "40.887286",
    "lon": "29.187681"
  },
  {
    "name": "Güneş Plajı",
    "lat": "40.97069",
    "lon": "28.79055"
  },
  {
    "name": "Aqua Florya",
    "lat": "40.966247",
    "lon": "28.795958"
  },
  {
    "name": "Florya Sosyal Tesisler 1",
    "lat": "40.960017",
    "lon": " 28.806706"
  },
  {
    "name": "Rönepark Sahil",
    "lat": "40.95676",
    "lon": "28.83431"
  },
  {
    "name": "Topkapı Tramvay Durağı ",
    "lat": "41.020008",
    "lon": " 28.919956"
  },
  {
    "name": "Ümraniye Mesire 2",
    "lat": "41.043335",
    "lon": "29.118647"
  },
  {
    "name": "Küçüksu Mesire 2",
    "lat": "41.0798468",
    "lon": "29.0659358"
  },
  {
    "name": "Küçüksu Mesire 1",
    "lat": "41.080521",
    "lon": "29.069110"
  },
  {
    "name": "Veledrom - 1",
    "lat": "40.929102",
    "lon": "29.118630"
  },
  {
    "name": "Küçükçekmece Sahil Karakol",
    "lat": "40.990246",
    "lon": "28.769291"
  },
  {
    "name": "Dolunay Kafe",
    "lat": "40.995333",
    "lon": "28.764796"
  },
  {
    "name": "Küçükçekmece Sosyal Tesisleri",
    "lat": "41.000206",
    "lon": "28.766064"
  },
  {
    "name": "Baruthane Millet Bahçesi",
    "lat": "40.974582",
    "lon": "28.857572"
  },
  {
    "name": "Bakırköy İdo",
    "lat": "40.973941",
    "lon": "28.875988"
  },
  {
    "name": "Zeyport",
    "lat": "40.981653",
    "lon": "28.894072"
  },
  {
    "name": "Kazlıçeşme Sahil Park",
    "lat": "40.9867",
    "lon": "28.910008"
  },
  {
    "name": "Yedikule Sahil Durağı",
    "lat": "40.988513",
    "lon": "28.922658"
  },
  {
    "name": "Narlıkapı Otobüs Durağı",
    "lat": "40.996009",
    "lon": "28.932204"
  },
  {
    "name": "Milli Saraylar",
    "lat": "41.037478",
    "lon": "28.995415"
  },
  {
    "name": "Kuruçeşme Parkı",
    "lat": "41.059857",
    "lon": "29.036419"
  },
  {
    "name": "Çamlıbahçe Otobüs Durağı",
    "lat": "41.070734",
    "lon": " 29.045382"
  },
  {
    "name": "Beşiktaş Merkez-1",
    "lat": "41.041237",
    "lon": " 29.007018"
  },
  {
    "name": "Veledrom - 2",
    "lat": "40.929130",
    "lon": "29.118607"
  },
  {
    "name": "İstinye Marina",
    "lat": "41.114922",
    "lon": "29.056491"
  },
  {
    "name": "Baltalimanı Otobüs Durağı",
    "lat": "41.097312",
    "lon": "29.0532"
  },
  {
    "name": "Emirgan Vapur İskelesi",
    "lat": "41.103109",
    "lon": "29.055982"
  },
  {
    "name": "Haydar Aliyev Parkı",
    "lat": "41.149910",
    "lon": " 29.043881"
  },
  {
    "name": "Avcılar İdo",
    "lat": "40.971234",
    "lon": "28.717881"
  },
  {
    "name": "İstanbul Bisiklet Evi",
    "lat": "40.999693",
    "lon": "28.939202"
  },
  {
    "name": "Zeytinburnu Kademe Test",
    "lat": "",
    "lon": "0"
  },
  {
    "name": "Moda Beltur",
    "lat": " 40.979875",
    "lon": "29.025266"
  },
  {
    "name": "Taşhan Kavşağı",
    "lat": "40.977509",
    "lon": "28.883259"
  },
  {
    "name": "Çocuk Parkı",
    "lat": "40.971932",
    "lon": "28.732597"
  },
  {
    "name": "Avcılar Sosyal Tesisleri",
    "lat": "40.973004",
    "lon": "28.743062"
  },
  {
    "name": "Florya Marina",
    "lat": "40.956492",
    "lon": "28.822226"
  },
  {
    "name": "Atatürk Ormanı 1",
    "lat": "40.975552",
    "lon": "28.790419"
  },
  {
    "name": "Florya Metrobüs",
    "lat": "40.987301",
    "lon": "28.791242"
  },
  {
    "name": "Avrasya Gösteri Merkezi",
    "lat": "41.000568",
    "lon": "28.943595"
  },
  {
    "name": "Şehit Serkan Aktepe",
    "lat": "40.901764",
    "lon": " 29.162916"
  },
  {
    "name": "Fitness salonu ",
    "lat": "40.934654",
    "lon": "29.111671"
  },
  {
    "name": "Kozlu Otobüs Durağı",
    "lat": "41.009566",
    "lon": "28.92155"
  },
  {
    "name": "Biruni Üniversitesi 1",
    "lat": "41.004092",
    "lon": "28.92044"
  },
  {
    "name": "Kazlıçeşme Marmaray 1",
    "lat": "40.992906",
    "lon": " 28.916978"
  },
  {
    "name": "Tarabya Marina",
    "lat": "41.139037",
    "lon": "29.054367"
  },
  {
    "name": "58. Bulvar",
    "lat": "40.993778",
    "lon": "28.903812"
  },
  {
    "name": "Fenerbahçe Otopark",
    "lat": "40.9691",
    "lon": " 29.03634"
  },
  {
    "name": "Bozkurt Cami",
    "lat": "40.989377",
    "lon": "28.893449"
  },
  {
    "name": "Dragos Şehir Üniversitesi",
    "lat": "40.90167",
    "lon": "29.15508"
  },
  {
    "name": "Ataköy Metro",
    "lat": "40.99123",
    "lon": " 28.84595"
  },
  {
    "name": "Zeytinburnu Metro 1",
    "lat": "41.000427",
    "lon": " 28.890726"
  },
  {
    "name": "Emirgan Sütiş",
    "lat": "41.10501",
    "lon": "29.056888"
  },
  {
    "name": "Emirgan Parkı",
    "lat": "41.10744",
    "lon": " 29.05788"
  },
  {
    "name": "Fenerbahçe Ordu Evi",
    "lat": "40.96968",
    "lon": " 29.04753"
  },
  {
    "name": "Sarıyer Merkez",
    "lat": "41.167216",
    "lon": "29.057485"
  },
  {
    "name": "Biruni Üniversitesi 2",
    "lat": " 41.003189",
    "lon": " 28.920166"
  },
  {
    "name": "Florya Polis Okulu",
    "lat": "40.98723",
    "lon": "28.79645"
  },
  {
    "name": "Suadiye Beltur - 1",
    "lat": "40.9585",
    "lon": " 29.0727"
  },
  {
    "name": "Yenikapı İdo",
    "lat": "41.002905",
    "lon": "28.955924"
  },
  {
    "name": "Arnavutköy İskelesi",
    "lat": "41.066996",
    "lon": "29.043772"
  },
  {
    "name": "Caddebostan Cankurtaran",
    "lat": "40.96493",
    "lon": " 29.05717"
  },
  {
    "name": "Karaköy Merkez",
    "lat": "41.022417",
    "lon": "28.975207"
  },
  {
    "name": "Behice Yazgan",
    "lat": "40.97531",
    "lon": " 29.04267"
  },
  {
    "name": "Yalılar Otobüs Durağı",
    "lat": "41.11722",
    "lon": " 29.064"
  },
  {
    "name": "Avusturya Konsolosluğu",
    "lat": "41.12598",
    "lon": " 29.07089"
  },
  {
    "name": "Kazlıçeşme Marmaray 2",
    "lat": "40.993095",
    "lon": " 28.915462"
  },
  {
    "name": "Zübeyde Hanım Caddesi 3",
    "lat": "40.982748",
    "lon": " 28.895582"
  },
  {
    "name": "Futbol sahası",
    "lat": "40.938319",
    "lon": " 29.108651"
  },
  {
    "name": "Zeytinburnu Metro 2",
    "lat": "41.00046",
    "lon": "28.89085"
  },
  {
    "name": "Zeytinburnu Noterliği",
    "lat": "40.98853",
    "lon": " 28.90391"
  },
  {
    "name": "Yenikapı Metro",
    "lat": "41.005172",
    "lon": "28.951147"
  },
  {
    "name": "Boğaziçi Üniversitesi",
    "lat": "41.0799402",
    "lon": "29.0507107"
  },
  {
    "name": "Orhangazi Parkı - 1",
    "lat": "40.921719",
    "lon": " 29.125044"
  },
  {
    "name": "FSM Üniversitesi",
    "lat": "41.01458",
    "lon": " 28.91721"
  },
  {
    "name": "Orhangazi Köprü - 1",
    "lat": "40.922827",
    "lon": " 29.119551"
  },
  {
    "name": "Park İçi Yolu",
    "lat": "40.919712",
    "lon": " 29.128107"
  },
  {
    "name": "MED Amerikan Hastanesi",
    "lat": "40.978347",
    "lon": " 29.046149"
  },
  {
    "name": "İdealtepe Beltur",
    "lat": "40.933376",
    "lon": "29.115659"
  },
  {
    "name": "Belgradkapı Sosyal Tesisleri",
    "lat": "41.00028",
    "lon": " 28.91924"
  },
  {
    "name": "Esenler Millet Bahçesi",
    "lat": "41.061185",
    "lon": " 28.877734"
  },
  {
    "name": "15 Temmuz Şehitler Cami",
    "lat": "40.874832",
    "lon": "29.223945"
  },
  {
    "name": "Florya Sosyal Tesisler 2",
    "lat": "40.959962",
    "lon": "28.806776"
  },
  {
    "name": "Kartal Evlendirme Dairesi",
    "lat": "40.884920",
    "lon": " 29.196298"
  },
  {
    "name": "Pendik Marina Giriş",
    "lat": "40.87258",
    "lon": " 29.23332"
  },
  {
    "name": "Beşiktaş Merkez-2",
    "lat": "41.041146",
    "lon": " 29.007087"
  },
  {
    "name": "Kadıköy İski Arıtma Tesisi - 2 ",
    "lat": "40.986526",
    "lon": "29.019428"
  },
  {
    "name": "Cevizlibağ Atatürk Yurdu",
    "lat": "41.01521",
    "lon": " 28.91213"
  },
  {
    "name": "Medeniyet Üniversitesi",
    "lat": "40.90786",
    "lon": " 29.16752"
  },
  {
    "name": "Göztepe Parkı",
    "lat": "40.971884",
    "lon": "29.059063"
  },
  {
    "name": "Cevizli İmam Hatip Lisesi",
    "lat": "40.90989",
    "lon": " 29.17144"
  },
  {
    "name": "Yenikapı Park İçi Yolu",
    "lat": "41.00189",
    "lon": " 28.93879"
  },
  {
    "name": "Pendik Marina Çıkış",
    "lat": "40.8754",
    "lon": " 29.23725"
  },
  {
    "name": "Green Park Otel",
    "lat": "40.871669",
    "lon": " 29.248819"
  },
  {
    "name": "Veteriner Araştırma",
    "lat": "40.879021",
    "lon": "29.214971"
  },
  {
    "name": "Veliefendi Hipodromu",
    "lat": "40.98769",
    "lon": "28.88474"
  },
  {
    "name": "Suadiye Beltur - 2",
    "lat": "40.958425",
    "lon": "29.072760"
  },
  {
    "name": "Pendik İETT Garajı",
    "lat": "40.8737640",
    "lon": "29.2431330"
  },
  {
    "name": "Karayemiş Kafe",
    "lat": "40.897496",
    "lon": "29.162436"
  },
  {
    "name": "Pendik Sahil Bulvarı",
    "lat": "40.868256",
    "lon": "29.255641"
  },
  {
    "name": "İstmarina AVM",
    "lat": "40.883137",
    "lon": "29.207476"
  },
  {
    "name": "Ümraniye Mesire 1",
    "lat": "41.036342",
    "lon": "29.120320"
  },
  {
    "name": "Küçükköy Merkez",
    "lat": "41.073033",
    "lon": " 28.903562"
  },
  {
    "name": "Solar Panel İstasyonu",
    "lat": "40.919236",
    "lon": " 29.125595"
  },
  {
    "name": "Etkinlik alanı ",
    "lat": "40.918974276",
    "lon": " 29.1237105633"
  },
  {
    "name": "Ortaçeşme Meydan",
    "lat": "41.147853",
    "lon": "29.087057"
  },
  {
    "name": "Çubuklu Kavşak Dedeoğlu Parkı",
    "lat": "41.107284",
    "lon": "29.088144"
  },
  {
    "name": "Çubuklu Arabalı Vapur İskelesi",
    "lat": "41.107661",
    "lon": "29.083490"
  },
  {
    "name": "Beykoz Devlet Hastanesi",
    "lat": "41.112535",
    "lon": "29.086782"
  },
  {
    "name": "Beykoz Çayırı",
    "lat": "41.140951",
    "lon": "29.086606"
  },
  {
    "name": "Beykoz Meydan",
    "lat": "41.134460",
    "lon": "29.091464"
  },
  {
    "name": "Paşabahçe Meydan",
    "lat": "41.115674",
    "lon": "29.095205"
  },
  {
    "name": "İdealtepe Otobüs Durağı",
    "lat": "40.93572",
    "lon": "29.11463"
  },
  {
    "name": "Bilim Parkı",
    "lat": "40.92772",
    "lon": "29.12088"
  },
  {
    "name": "Paten Pisti",
    "lat": "40.925876",
    "lon": "29.121829"
  },
  {
    "name": "Maltepe Sahil Durağı",
    "lat": "40.922794",
    "lon": " 29.125883"
  },
  {
    "name": "Kartal İDO - 2",
    "lat": "40.887286",
    "lon": "29.187800"
  },
  {
    "name": "Kutlu Engin Sitesi",
    "lat": "40.9308873",
    "lon": "29.3044483"
  },
  {
    "name": "Beykoz İETT ve Dolmuş Yanı",
    "lat": "41.14912",
    "lon": " 29.09478"
  },
  {
    "name": "Kartal Sahil - 2",
    "lat": "40.890062",
    "lon": "29.174990"
  },
  {
    "name": "Major Sitesi",
    "lat": "40.923570",
    "lon": "29.296576"
  },
  {
    "name": "Çamkoza Residance",
    "lat": "40.927106",
    "lon": " 29.287515"
  },
  {
    "name": "Kurtköy Spor Kulübü",
    "lat": "40.934225",
    "lon": " 29.327433"
  },
  {
    "name": "Kurtköy Spor Tesisleri",
    "lat": "40.930393",
    "lon": " 29.320365"
  },
  {
    "name": "Dönerci Celal Usta",
    "lat": "40.926605",
    "lon": " 29.308191"
  },
  {
    "name": "Uzunlar Kafe Karşısı ",
    "lat": "40.923329",
    "lon": " 29.284036"
  },
  {
    "name": "Yenişehir Garanti Sitesi",
    "lat": "40.94003",
    "lon": " 29.314303"
  },
  {
    "name": "Mihrabat Korusu",
    "lat": "41.09471",
    "lon": " 29.06783"
  },
  {
    "name": "Kanlıca Camii",
    "lat": "41.10017",
    "lon": " 29.06624"
  },
  {
    "name": "Orhangazi Parkı - 2",
    "lat": "40.921527",
    "lon": "29.125280"
  },
  {
    "name": "Rumeli Sitesi",
    "lat": "40.925588",
    "lon": " 29.300012"
  },
  {
    "name": "Çubuklu İskelesi",
    "lat": "41.107362",
    "lon": "29.080248"
  },
  {
    "name": "Yalıboyu Otobüs Durağı ",
    "lat": "41.103609",
    "lon": "29.067775"
  },
  {
    "name": "Şile Engelliler Kampı",
    "lat": "",
    "lon": "0"
  },
  {
    "name": "Kadıköy İski Arıtma Tesisi -1",
    "lat": "40.987861",
    "lon": "29.018744"
  },
  {
    "name": "Süreyya Paşa Durak Arkası",
    "lat": "40.924723",
    "lon": " 29.123943"
  },
  {
    "name": "Atrium AVM",
    "lat": "40.987992",
    "lon": "28.846291"
  },
  {
    "name": "Yoğurtçu Parkı",
    "lat": "40.986758",
    "lon": " 29.034776"
  },
  {
    "name": "Çırpıcı Parkı 1",
    "lat": "40.996128",
    "lon": " 28.888340"
  },
  {
    "name": "Galeria Avm Önü",
    "lat": "40.975021",
    "lon": " 28.869607"
  },
  {
    "name": "Florya Sahil Plajı ",
    "lat": "40.956833",
    "lon": " 28.813694"
  },
  {
    "name": "Çırpıcı Parkı 2",
    "lat": "40.999737",
    "lon": " 28.892675"
  },
  {
    "name": "Menekşe Plajı Açık Otopark",
    "lat": "40.976917",
    "lon": " 28.775917"
  },
  {
    "name": "Cennet Metrobüs",
    "lat": "40.985146",
    "lon": " 28.782045"
  },
  {
    "name": "Millet Bahçesi",
    "lat": "41.100277",
    "lon": " 28.925563"
  },
  {
    "name": "Migros Eşref Bitlis Bulvarı",
    "lat": "40.941726",
    "lon": " 29.301895"
  },
  {
    "name": "Ümraniye Çarşı",
    "lat": "41.026061",
    "lon": " 29.096690"
  },
  {
    "name": "29 Mayıs Üniversitesi",
    "lat": "41.03076",
    "lon": "29.10014"
  },
  {
    "name": "Kubbe Life",
    "lat": "41.089746",
    "lon": " 28.909341"
  },
  {
    "name": "500 Evler Caddesi-1",
    "lat": "41.067085",
    "lon": " 28.899993"
  },
  {
    "name": "Adnan Büyükdeniz",
    "lat": "41.032077",
    "lon": "29.111690"
  },
  {
    "name": "Kentsel Dönüşüm Ofisi",
    "lat": "41.082501",
    "lon": " 28.892742"
  },
  {
    "name": "23 Nisan Parkı",
    "lat": "41.076563",
    "lon": " 28.907516"
  },
  {
    "name": "Kazım Karabekir Metro",
    "lat": "41.084968",
    "lon": " 28.910500"
  },
  {
    "name": "Spor Kompleksi",
    "lat": "41.072444",
    "lon": " 28.913674"
  },
  {
    "name": "Sokullu Mehmet Paşa Caddesi",
    "lat": "41.066830",
    "lon": " 28.908396"
  },
  {
    "name": "Taşköprü Metro",
    "lat": "41.073489",
    "lon": " 28.886585"
  },
  {
    "name": "Muharrem Camii",
    "lat": "41.072529",
    "lon": " 28.891257"
  },
  {
    "name": "500 Evler Caddesi-3",
    "lat": "41.070670",
    "lon": " 28.894989"
  },
  {
    "name": "500 Evler Caddesi-2",
    "lat": "41.068351",
    "lon": " 28.897631"
  },
  {
    "name": "Hakiş İett Durağı",
    "lat": "40.927696",
    "lon": " 29.296661"
  },
  {
    "name": "Canpark Avm Önü",
    "lat": "41.024653",
    "lon": " 29.104890"
  },
  {
    "name": "Belediye Önü",
    "lat": "41.057867",
    "lon": " 28.914518"
  },
  {
    "name": "Cumhuriyet Meydanı",
    "lat": "41.057854",
    "lon": " 28.913746"
  },
  {
    "name": "Bereç",
    "lat": "41.053716",
    "lon": " 28.910557"
  },
  {
    "name": "Çukurçeşme",
    "lat": "41.061371",
    "lon": " 28.902420"
  },
  {
    "name": "Akyaka Avm Önü",
    "lat": "41.032660",
    "lon": " 29.113413"
  },
  {
    "name": "Çamlık Spor Tesisi",
    "lat": "40.928130",
    "lon": " 29.280305"
  },
  {
    "name": "Nur sitesi",
    "lat": "41.090418",
    "lon": " 28.914644"
  },
  {
    "name": "Dr. Fazıl Küçük Caddesi",
    "lat": "41.023494",
    "lon": " 29.115105"
  },
  {
    "name": "Çengelköy Otoparkı",
    "lat": "41.048820",
    "lon": " 29.053670"
  },
  {
    "name": "Kalamış Parkı",
    "lat": "40.980542",
    "lon": "29.036574"
  },
  {
    "name": "Sirkeci-2",
    "lat": "41.016404",
    "lon": " 28.977229"
  },
  {
    "name": "Ortaköy Refuj",
    "lat": "41.049090",
    "lon": "29.028495"
  },
  {
    "name": "Dr. Tahsin Arcan Parkı ",
    "lat": "40.876632",
    "lon": "29.238411"
  },
  {
    "name": "Pendik Doğu Mahallesi ",
    "lat": "40.874743",
    "lon": "29.242793"
  },
  {
    "name": "Pendik Polis Karakolu",
    "lat": "40.877019",
    "lon": "29.236855"
  },
  {
    "name": "Pendik Sahil Zeminaltı Otopark",
    "lat": "40.875118",
    "lon": "29.233682"
  },
  {
    "name": "Marmara Forum",
    "lat": "40.999580",
    "lon": " 28.884880"
  },
  {
    "name": "İl Ambulans",
    "lat": "40.901882",
    "lon": "29.158616"
  },
  {
    "name": "Kuşkonmaz Cami",
    "lat": "41.025971",
    "lon": " 29.012173"
  },
  {
    "name": "Marmaray Girişi",
    "lat": "41.026031",
    "lon": " 29.014112"
  },
  {
    "name": "Harem 1",
    "lat": "41.010254",
    "lon": " 29.011476"
  },
  {
    "name": "Harem 2",
    "lat": "41.007420",
    "lon": " 29.011733"
  },
  {
    "name": "Sultan AbdulhamitHan Hastanesi",
    "lat": "41.002564",
    "lon": " 29.018507"
  },
  {
    "name": "Kuleli Askeri Lisesi",
    "lat": "41.060207",
    "lon": "29.052801"
  },
  {
    "name": "Kuruçeşme Koleji ",
    "lat": "41.064354",
    "lon": "29.041033"
  },
  {
    "name": "Rumeli Hisarı ",
    "lat": "41.087818",
    "lon": "29.056803"
  },
  {
    "name": "Trabya Central Otel",
    "lat": "41.144876",
    "lon": "29.054206"
  },
  {
    "name": "Kayalı Parkı",
    "lat": "40.972709",
    "lon": "28.789166"
  },
  {
    "name": "Soğanlık Kademe Test",
    "lat": "",
    "lon": "0"
  },
  {
    "name": "Sirkeci-1",
    "lat": "41.016426",
    "lon": " 28.977132"
  },
  {
    "name": "Deniz Feneri",
    "lat": "41.0019720",
    "lon": " 28.9780720"
  },
  {
    "name": "Kumkapı Balıkçılar Çarşısı ",
    "lat": "41.002810",
    "lon": "28.961198"
  },
  {
    "name": "Sarayburnu Parkı ",
    "lat": "41.01594",
    "lon": "28.98627"
  },
  {
    "name": "Büyükçekmece Belediyesi ",
    "lat": "41.021159",
    "lon": " 28.584339"
  },
  {
    "name": "Atatürk Parkı 2",
    "lat": "41.001509",
    "lon": " 28.539123"
  },
  {
    "name": "Ordu Evi Önü ",
    "lat": "41.019310",
    "lon": " 28.584069"
  },
  {
    "name": "Barış Manço Parkı ",
    "lat": "40.996356",
    "lon": " 28.538412"
  },
  {
    "name": "Mustafa Kemal Bulvarı",
    "lat": "41.007038",
    "lon": " 28.539266"
  },
  {
    "name": "Atatürk Parkı 1 ",
    "lat": "40.9987367",
    "lon": "28.5389715"
  },
  {
    "name": "İTÜ Denizcilik Fakültesi 1",
    "lat": "40.816048",
    "lon": " 29.295782"
  },
  {
    "name": "Uzunlar Kafe - 1 ",
    "lat": "40.814498",
    "lon": " 29.302953"
  },
  {
    "name": "Gisbir Cami",
    "lat": "40.812124",
    "lon": "29.307269"
  },
  {
    "name": "Kadiköy Balon - 2",
    "lat": "40.990622",
    "lon": "29.018703"
  },
  {
    "name": "Akatlar Ofis Demo ",
    "lat": "",
    "lon": "0"
  },
  {
    "name": "100000000",
    "lat": "",
    "lon": "0"
  },
  {
    "name": "Uzunlar Kafe - 2",
    "lat": "40.814512",
    "lon": "29.303125"
  },
  {
    "name": "Viaport Marina",
    "lat": "40.814792",
    "lon": "29.313905"
  },
  {
    "name": "Orhangazi Köprü - 2 ",
    "lat": "40.922885",
    "lon": " 29.119686"
  },
  {
    "name": "Yenikapı Güvenlik Önü",
    "lat": "41.0009110",
    "lon": " 28.9490960"
  },
  {
    "name": "Minibüs Durakları",
    "lat": "40.932330",
    "lon": " 29.325464"
  },
  {
    "name": "Üsküdar Vapur İskelesi",
    "lat": "41.026779",
    "lon": " 29.014748"
  },
  {
    "name": "15 Temmuz Şehitler Camii 2",
    "lat": "40.874653",
    "lon": " 29.224030"
  },
  {
    "name": "İTÜ Denizcilik Fakültesi - 2",
    "lat": "40.816402",
    "lon": " 29.296742"
  },
  {
    "name": "Vaniköy Park",
    "lat": "41.068386",
    "lon": "29.057169"
  }
]
